var data = {"type":"FeatureCollection","features":[{"type":"Feature","properties":{"marker-color":"#7e7e7e","marker-size":"medium","marker-symbol":"","Name":"Data Link University","Landmark_Type":"University"},"geometry":{"type":"Point","coordinates":[-0.023561,5.670176]}},{"type":"Feature","properties":{"marker-color":"#7e7e7e","marker-size":"medium","marker-symbol":"","Name":"Sikkim Manipal University","Landmark_Type":"University"},"geometry":{"type":"Point","coordinates":[-0.209263,5.570839]}},{"type":"Feature","properties":{"marker-color":"#7e7e7e","marker-size":"medium","marker-symbol":"","Name":"Central University College","Landmark_Type":"University"},"geometry":{"type":"Point","coordinates":[-0.241767,5.566321]}},{"type":"Feature","properties":{"marker-color":"#7e7e7e","marker-size":"medium","marker-symbol":"","Name":"University of Ghana","Landmark_Type":"University"},"geometry":{"type":"Point","coordinates":[-0.196224,5.650562]}},{"type":"Feature","properties":{"marker-color":"#7e7e7e","marker-size":"medium","marker-symbol":"","Name":"University of Cape Coast","Landmark_Type":"University"},"geometry":{"type":"Point","coordinates":[-1.290896,5.115533]}},{"type":"Feature","properties":{"marker-color":"#7e7e7e","marker-size":"medium","marker-symbol":"","Name":"Kwame Nkrumah University of Science and Technology","Landmark_Type":"University"},"geometry":{"type":"Point","coordinates":[-1.565402,6.673159]}},{"type":"Feature","properties":{"marker-color":"#7e7e7e","marker-size":"medium","marker-symbol":"","Name":"All Nations University","Landmark_Type":"University"},"geometry":{"type":"Point","coordinates":[-0.255984,6.094826]}},{"type":"Feature","properties":{"marker-color":"#7e7e7e","marker-size":"medium","marker-symbol":"","Name":"University College of Education","Landmark_Type":"University"},"geometry":{"type":"Point","coordinates":[-0.633904,5.362136]}},{"type":"Feature","properties":{"marker-color":"#7e7e7e","marker-size":"medium","marker-symbol":"","Name":"University for Development Studies, Tamale Campus","Landmark_Type":"University"},"geometry":{"type":"Point","coordinates":[-0.885172,9.374886]}},{"type":"Feature","properties":{"marker-color":"#7e7e7e","marker-size":"medium","marker-symbol":"","Name":"University for Development Studies, Wa Campus","Landmark_Type":"University"},"geometry":{"type":"Point","coordinates":[-2.534037,10.053217]}},{"type":"Feature","properties":{"marker-color":"#7e7e7e","marker-size":"medium","marker-symbol":"","Name":"University for Development Studies, Navrongo Campus","Landmark_Type":"University"},"geometry":{"type":"Point","coordinates":[-1.077626,10.866382]}},{"type":"Feature","properties":{"marker-color":"#7e7e7e","marker-size":"medium","marker-symbol":"","Name":"University of Mines and Technology","Landmark_Type":"University"},"geometry":{"type":"Point","coordinates":[-2.001271,5.298485]}},{"type":"Feature","properties":{"marker-color":"#7e7e7e","marker-size":"medium","marker-symbol":"","Name":"University of Health and Allied Sciences","Landmark_Type":"University"},"geometry":{"type":"Point","coordinates":[0.440992,6.573933]}},{"type":"Feature","properties":{"marker-color":"#7e7e7e","marker-size":"medium","marker-symbol":"","Name":"UENR","Landmark_Type":"University"},"geometry":{"type":"Point","coordinates":[-2.342965,7.350175]}},{"type":"Feature","properties":{"marker-color":"#7e7e7e","marker-size":"medium","marker-symbol":"","Name":"Mole National Park","Landmark_Type":"Tourist_site"},"geometry":{"type":"Point","coordinates":[-2,9.5]}},{"type":"Feature","properties":{"marker-color":"#7e7e7e","marker-size":"medium","marker-symbol":"","Name":"Paga Crocodile Pond","Landmark_Type":"Tourist_site"},"geometry":{"type":"Point","coordinates":[-1.111322,10.99564]}},{"type":"Feature","properties":{"marker-color":"#7e7e7e","marker-size":"medium","marker-symbol":"","Name":"Kintampo Waterfalls","Landmark_Type":"Tourist_site"},"geometry":{"type":"Point","coordinates":[-1.697932,8.089761]}},{"type":"Feature","properties":{"marker-color":"#7e7e7e","marker-size":"medium","marker-symbol":"","Name":"Boti Falls","Landmark_Type":"Tourist_site"},"geometry":{"type":"Point","coordinates":[-0.216559,6.192951]}},{"type":"Feature","properties":{"marker-color":"#7e7e7e","marker-size":"medium","marker-symbol":"","Name":"Wli Falls","Landmark_Type":"Tourist_site"},"geometry":{"type":"Point","coordinates":[0.585949,7.116296]}},{"type":"Feature","properties":{"marker-color":"#7e7e7e","marker-size":"medium","marker-symbol":"","Name":"Boabeng-Fiema Monkey Sanctuary","Landmark_Type":"Tourist_site"},"geometry":{"type":"Point","coordinates":[-1.735031,7.792993]}},{"type":"Feature","properties":{"marker-color":"#7e7e7e","marker-size":"medium","marker-symbol":"","Name":"Elmina Castle","Landmark_Type":"Tourist_site"},"geometry":{"type":"Point","coordinates":[-1.347979,5.082709]}},{"type":"Feature","properties":{"marker-color":"#7e7e7e","marker-size":"medium","marker-symbol":"","Name":"Cape Coast Castle","Landmark_Type":"Tourist_site"},"geometry":{"type":"Point","coordinates":[-1.240982,5.103598]}},{"type":"Feature","properties":{"marker-color":"#7e7e7e","marker-size":"medium","marker-symbol":"","Name":"Manhyia Palace","Landmark_Type":"Tourist_site"},"geometry":{"type":"Point","coordinates":[-1.615004,6.703552]}},{"type":"Feature","properties":{"marker-color":"#7e7e7e","marker-size":"medium","marker-symbol":"","Landmark_Type":"Tourist_site","Name":"Osu Castle"},"geometry":{"type":"Point","coordinates":[-0.183333,5.546906]}}]}
